Station, Fav, StationName, HydStatus, Prov, Latitude, Longitude, DrainageArea, Years, From, To, Reg., Flow, Level, Sed, OperSched, RealTime, RHBN, Region, Datum, Operator
 ,  ,  ,  ,  , Degrees, Degrees, km²,  ,  ,  ,  ,  ,  ,  ,  ,  ,  ,  ,  ,  
07EA004, False, INGENIKA RIVER ABOVE SWANNELL RIVER, Active, BC, 56.73061, -125.105, 4140, 38, 1977, 2014, False, True, True, False, Continuous, True, False, VANCOUVER, ASSUMED DATUM, WATER SURVEY OF CANADA (DOE) (CANADA)
07EA005, False, FINLAY RIVER ABOVE AKIE RIVER, Active, BC, 57.12622, -125.2499, 15600, 37, 1978, 2014, False, True, True, False, Continuous, True, False, VANCOUVER, ASSUMED DATUM, WATER SURVEY OF CANADA (DOE) (CANADA)
07EA007, False, AKIE RIVER NEAR THE 760 M CONTOUR, Active, BC, 57.19111, -124.9011, 1690, 36, 1981, 2016, False, True, True, False, Continuous, True, False, VANCOUVER, ASSUMED DATUM, WATER SURVEY OF CANADA (DOE) (CANADA)
07EB002, False, OSPIKA RIVER ABOVE ALEY CREEK, Active, BC, 56.52411, -123.936, 2190, 35, 1981, 2015, False, True, True, False, Continuous, True, False, VANCOUVER, ASSUMED DATUM, WATER SURVEY OF CANADA (DOE) (CANADA)
07EC002, False, OMINECA RIVER ABOVE OSILINKA RIVER, Active, BC, 55.91686, -124.5676, 5560, 42, 1975, 2016, False, True, True, False, Continuous, True, True, VANCOUVER, ASSUMED DATUM, WATER SURVEY OF CANADA (DOE) (CANADA)
07EC003, False, MESILINKA RIVER ABOVE GOPHERHOLE CREEK, Active, BC, 56.245, -124.6447, 3060, 40, 1976, 2015, False, True, True, False, Continuous, True, False, VANCOUVER, ASSUMED DATUM, WATER SURVEY OF CANADA (DOE) (CANADA)
07EC004, False, OSILINKA RIVER NEAR END LAKE, Active, BC, 56.12694, -124.8019, 1950, 35, 1981, 2015, False, True, True, False, Continuous, True, False, VANCOUVER, ASSUMED DATUM, WATER SURVEY OF CANADA (DOE) (CANADA)
07ED003, False, NATION RIVER NEAR THE MOUTH, Active, BC, 55.42722, -123.6334, 6790, 34, 1981, 2014, False, True, True, False, Continuous, True, False, VANCOUVER, ASSUMED DATUM, WATER SURVEY OF CANADA (DOE) (CANADA)
07EE007, False, PARSNIP RIVER ABOVE MISINCHINKA RIVER, Active, BC, 55.08194, -122.9131, 4930, 49, 1967, 2015, False, True, True, False, Continuous, True, False, VANCOUVER, ASSUMED DATUM, WATER SURVEY OF CANADA (DOE) (CANADA)
07EE009, False, CHUCHINKA CREEK NEAR THE MOUTH, Active, BC, 54.52972, -122.6122, 310, 41, 1975, 2015, False, True, True, False, Continuous, True, True, VANCOUVER, ASSUMED DATUM, WATER SURVEY OF CANADA (DOE) (CANADA)
07EE010, False, PACK RIVER AT OUTLET OF MCLEOD LAKE, Active, BC, 54.9985, -123.0366, 3710, 35, 1981, 2015, False, True, True, False, Continuous, True, False, VANCOUVER, ASSUMED DATUM, WATER SURVEY OF CANADA (DOE) (CANADA)
07EF004, False, CARBON CREEK NEAR THE MOUTH, Active, BC, 55.94611, -122.6589, 741, 19, 1998, 2016, False, True, True, False, Continuous, True, False, VANCOUVER, ASSUMED DATUM, WATER SURVEY OF CANADA (DOE) (CANADA)
07FA003, False, HALFWAY RIVER ABOVE GRAHAM RIVER, Active, BC, 56.50894, -122.2432, 3780, 22, 1977, 2014, False, True, True, False, Continuous, True, False, VANCOUVER, ASSUMED DATUM, WATER SURVEY OF CANADA (DOE) (CANADA)
07FA005, False, GRAHAM RIVER ABOVE COLT CREEK, Active, BC, 56.45986, -122.3545, 2140, 32, 1981, 2014, False, True, True, False, Continuous, True, False, VANCOUVER, ASSUMED DATUM, WATER SURVEY OF CANADA (DOE) (CANADA)
07FA006, False, HALFWAY RIVER NEAR FARRELL CREEK, Active, BC, 56.25075, -121.6285, 9340, 31, 1981, 2014, False, True, True, False, Continuous, True, False, VANCOUVER, ASSUMED DATUM, WATER SURVEY OF CANADA (DOE) (CANADA)
07FB001, False, PINE RIVER AT EAST PINE, Active, BC, 55.71844, -121.2116, 12100, 56, 1961, 2016, False, True, True, False, Continuous, True, True, VANCOUVER, ASSUMED DATUM, WATER SURVEY OF CANADA (DOE) (CANADA)
07FB002, False, MURRAY RIVER NEAR THE MOUTH, Active, BC, 55.55247, -121.2035, 5550, 39, 1977, 2015, False, True, True, True, Continuous, True, False, VANCOUVER, ASSUMED DATUM, WATER SURVEY OF CANADA (DOE) (CANADA)
07FB003, False, SUKUNKA RIVER NEAR THE MOUTH, Active, BC, 55.54217, -121.6276, 2590, 38, 1977, 2014, False, True, True, True, Continuous, True, False, VANCOUVER, ASSUMED DATUM, WATER SURVEY OF CANADA (DOE) (CANADA)
07FB004, False, DICKEBUSCH CREEK NEAR THE MOUTH, Active, BC, 55.53778, -121.5968, 82.4, 37, 1978, 2014, False, True, True, True, Continuous, True, False, VANCOUVER, ASSUMED DATUM, WATER SURVEY OF CANADA (DOE) (CANADA)
07FB006, False, MURRAY RIVER ABOVE WOLVERINE RIVER, Active, BC, 55.06136, -121.0138, 2370, 38, 1977, 2014, False, True, True, True, Continuous, True, False, VANCOUVER, ASSUMED DATUM, WATER SURVEY OF CANADA (DOE) (CANADA)
07FB008, False, MOBERLY RIVER NEAR FORT ST. JOHN, Active, BC, 56.0925, -121.3668, 1520, 34, 1980, 2013, False, True, True, False, Continuous, True, False, VANCOUVER, ASSUMED DATUM, WATER SURVEY OF CANADA (DOE) (CANADA)
07FB009, False, FLATBED CREEK AT KILOMETRE 110 HERITAGE HIGHWAY, Active, BC, 55.09017, -120.9418, 486, 33, 1982, 2014, False, True, True, False, Continuous, True, False, VANCOUVER, ASSUMED DATUM, WATER SURVEY OF CANADA (DOE) (CANADA)
07FC001, False, BEATTON RIVER NEAR FORT ST. JOHN, Active, BC, 56.27844, -120.6999, 15600, 55, 1961, 2015, False, True, True, False, Continuous, True, False, VANCOUVER, ASSUMED DATUM, WATER SURVEY OF CANADA (DOE) (CANADA)
07FC003, False, BLUEBERRY RIVER BELOW AITKEN CREEK, Active, BC, 56.67764, -121.2223, 1770, 50, 1964, 2013, False, True, True, False, Continuous, True, True, VANCOUVER, ASSUMED DATUM, WATER SURVEY OF CANADA (DOE) (CANADA)
07FD001, False, KISKATINAW RIVER NEAR FARMINGTON, Active, BC, 55.95736, -120.5644, 3630, 62, 1944, 2016, False, True, True, False, Continuous, True, False, VANCOUVER, ASSUMED DATUM, WATER SURVEY OF CANADA (DOE) (CANADA)
07FD004, False, ALCES RIVER AT 22ND BASE LINE, Active, BC, 56.33422, -120.1551, 295, 31, 1963, 2014, False, True, True, False, Continuous, True, False, VANCOUVER, ASSUMED DATUM, WATER SURVEY OF CANADA (DOE) (CANADA)
07FD007, False, POUCE COUPE RIVER BELOW HENDERSON CREEK, Active, BC, 55.86519, -120.0304, 2860, 41, 1971, 2013, False, True, True, False, Continuous, True, False, VANCOUVER, ASSUMED DATUM, WATER SURVEY OF CANADA (DOE) (CANADA)
08CD001, False, TUYA RIVER NEAR TELEGRAPH CREEK, Active, BC, 58.07225, -130.8264, 3550, 54, 1962, 2015, False, True, True, True, Continuous, True, True, VANCOUVER, ASSUMED DATUM, WATER SURVEY OF CANADA (DOE) (CANADA)
08CE001, False, STIKINE RIVER AT TELEGRAPH CREEK, Active, BC, 57.90027, -131.1597, 29000, 62, 1954, 2015, False, True, True, True, Continuous, True, False, VANCOUVER, ASSUMED DATUM, WATER SURVEY OF CANADA (DOE) (CANADA)
08CG001, False, ISKUT RIVER BELOW JOHNSON RIVER, Active, BC, 56.73444, -131.669, 9500, 57, 1959, 2015, False, True, True, True, Continuous, True, True, VANCOUVER, ASSUMED DATUM, WATER SURVEY OF CANADA (DOE) (CANADA)
08DA005, False, SURPRISE CREEK NEAR THE MOUTH, Active, BC, 56.10934, -129.4774, 218, 50, 1967, 2016, False, True, True, False, Continuous, True, True, VANCOUVER, ASSUMED DATUM, WATER SURVEY OF CANADA (DOE) (CANADA)
08DA012, False, KELLY CREEK NEAR STEWART, Active, BC, 56.29252, -129.2295, 8.64, 21, 1997, 2017, False, True, True, False, Seasonal, False, False, VANCOUVER, ASSUMED DATUM, WATER SURVEY OF CANADA (DOE) (CANADA)
08DB001, False, NASS RIVER ABOVE SHUMAL CREEK, Active, BC, 55.216, -129.1353, 18400, 81, 1929, 2015, False, True, True, False, Continuous, True, False, VANCOUVER, ASSUMED DATUM, WATER SURVEY OF CANADA (DOE) (CANADA)
08DB013, False, ANSEDAGAN CREEK NEAR NEW AIYANSH, Active, BC, 55.12986, -129.3549, 26, 18, 1997, 2014, False, True, True, False, Continuous, True, False, VANCOUVER, ASSUMED DATUM, WATER SURVEY OF CANADA (DOE) (CANADA)
08DB014, False, KSEDIN TRIBUTARY NO. 2 CREEK NEAR NEW AIYANSH, Active, BC, 55.01817, -129.3445, 18, 19, 1997, 2015, False, True, True, False, Continuous, False, False, VANCOUVER, ASSUMED DATUM, WATER SURVEY OF CANADA (DOE) (CANADA)
08EB003, False, SKEENA RIVER AT GLEN VOWELL, Active, BC, 55.30106, -127.6726, 26000, 26, 1960, 2016, False, True, True, False, Continuous, True, False, VANCOUVER, ASSUMED DATUM, WATER SURVEY OF CANADA (DOE) (CANADA)
08EB004, False, KISPIOX RIVER NEAR HAZELTON, Active, BC, 55.43385, -127.7162, 1880, 55, 1963, 2017, False, True, True, False, Continuous, True, False, VANCOUVER, ASSUMED DATUM, WATER SURVEY OF CANADA (DOE) (CANADA)
08EB005, False, SKEENA RIVER ABOVE BABINE RIVER, Active, BC, 55.71708, -127.6867, 12400, 35, 1970, 2016, False, True, True, False, Continuous, True, False, VANCOUVER, ASSUMED DATUM, WATER SURVEY OF CANADA (DOE) (CANADA)
08EB006, False, COMPASS CREEK NEAR KISPIOX, Active, BC, 55.45833, -127.8525, 19.1, 18, 1997, 2014, False, True, True, False, Seasonal, True, False, VANCOUVER, ASSUMED DATUM, WATER SURVEY OF CANADA (DOE) (CANADA)
08EC001, False, BABINE RIVER AT BABINE, Active, BC, 55.32253, -126.6298, 6350, 44, 1929, 2016, False, True, True, False, Continuous, True, False, VANCOUVER, ASSUMED DATUM, WATER SURVEY OF CANADA (DOE) (CANADA)
08EC013, False, BABINE RIVER AT OUTLET OF NILKITKWA LAKE, Active, BC, 55.42654, -126.6976, 6760, 45, 1972, 2016, False, True, True, False, Continuous, True, False, VANCOUVER, ASSUMED DATUM, WATER SURVEY OF CANADA (DOE) (CANADA)
08EC014, False, TWAIN CREEK TRIBUTARY NEAR BABINE LAKE, Active, BC, 54.55947, -125.9144, , 18, 1998, 2015, False, True, True, False, Seasonal, True, False, VANCOUVER, ASSUMED DATUM, WATER SURVEY OF CANADA (DOE) (CANADA)
08ED001, False, NANIKA RIVER AT OUTLET OF KIDPRICE LAKE, Active, BC, 53.93033, -127.4517, 732, 47, 1950, 2015, False, True, True, False, Continuous, True, True, VANCOUVER, ASSUMED DATUM, WATER SURVEY OF CANADA (DOE) (CANADA)
08ED002, False, MORICE RIVER NEAR HOUSTON, Active, BC, 54.11683, -127.4266, 1900, 56, 1961, 2016, False, True, True, False, Continuous, True, False, VANCOUVER, ASSUMED DATUM, WATER SURVEY OF CANADA (DOE) (CANADA)
08ED004, False, THAUTIL CORNER CREEK NEAR MORICE LAKE, Active, BC, 54.25583, -127.3497, 4.22, 20, 1997, 2016, False, True, True, False, Seasonal, True, False, VANCOUVER, ASSUMED DATUM, WATER SURVEY OF CANADA (DOE) (CANADA)
08EE003, False, BULKLEY RIVER NEAR HOUSTON, Active, BC, 54.39938, -126.7194, 2370, 59, 1930, 2016, False, True, True, False, Continuous, True, False, VANCOUVER, ASSUMED DATUM, WATER SURVEY OF CANADA (DOE) (CANADA)
08EE004, False, BULKLEY RIVER AT QUICK, Active, BC, 54.61861, -126.9, 7340, 87, 1930, 2016, False, True, True, False, Continuous, True, False, VANCOUVER, ASSUMED DATUM, WATER SURVEY OF CANADA (DOE) (CANADA)
08EE005, False, BULKLEY RIVER NEAR SMITHERS, Active, BC, 54.76972, -127.1333, 8940, 16, 1946, 2015, False, True, True, False, Continuous, True, False, VANCOUVER, ASSUMED DATUM, WATER SURVEY OF CANADA (DOE) (CANADA)
08EE008, False, GOATHORN CREEK NEAR TELKWA, Active, BC, 54.64861, -127.1233, 125, 57, 1960, 2016, False, True, True, False, Continuous, False, False, VANCOUVER, ASSUMED DATUM, WATER SURVEY OF CANADA (DOE) (CANADA)
08EE012, False, SIMPSON CREEK AT THE MOUTH, Active, BC, 54.80994, -127.2042, 13.2, 44, 1969, 2014, False, True, True, False, Continuous, True, False, VANCOUVER, ASSUMED DATUM, WATER SURVEY OF CANADA (DOE) (CANADA)
08EE013, False, BUCK CREEK AT THE MOUTH, Active, BC, 54.39608, -126.6502, 565, 43, 1973, 2015, False, True, True, False, Continuous, True, False, VANCOUVER, ASSUMED DATUM, WATER SURVEY OF CANADA (DOE) (CANADA)
08EE020, False, TELKWA RIVER BELOW TSAI CREEK, Active, BC, 54.60694, -127.4969, 367, 43, 1975, 2017, False, True, True, False, Continuous, True, False, VANCOUVER, ASSUMED DATUM, WATER SURVEY OF CANADA (DOE) (CANADA)
08EE025, False, TWO MILE CREEK IN DISTRICT LOT 4834, Active, BC, 55.29611, -127.6208, 21.2, 35, 1982, 2016, False, True, True, False, Continuous, False, False, VANCOUVER, ASSUMED DATUM, WATER SURVEY OF CANADA (DOE) (CANADA)
08EF001, False, SKEENA RIVER AT USK, Active, BC, 54.63194, -128.4306, 42300, 85, 1928, 2016, False, True, True, False, Continuous, True, False, VANCOUVER, ASSUMED DATUM, WATER SURVEY OF CANADA (DOE) (CANADA)
08EF005, False, ZYMOETZ RIVER ABOVE O.K. CREEK, Active, BC, 54.49363, -128.3247, 2850, 53, 1963, 2015, False, True, True, False, Continuous, True, False, VANCOUVER, ASSUMED DATUM, WATER SURVEY OF CANADA (DOE) (CANADA)
08EF006, False, M3 CREEK NEAR SMITHERS, Active, BC, 54.77825, -127.4693, 9.97, 19, 1997, 2015, False, True, True, False, Seasonal, True, False, VANCOUVER, ASSUMED DATUM, WATER SURVEY OF CANADA (DOE) (CANADA)
08EG012, False, EXCHAMSIKS RIVER NEAR TERRACE, Active, BC, 54.36219, -129.3128, 370, 54, 1962, 2015, False, True, True, False, Continuous, True, False, VANCOUVER, ASSUMED DATUM, WATER SURVEY OF CANADA (DOE) (CANADA)
08EG018, False, CLARENCE CREEK NEAR ROSSWOOD, Active, BC, 54.9925, -128.8067, 7.16, 19, 1997, 2015, False, True, True, False, Seasonal, False, False, VANCOUVER, ASSUMED DATUM, WATER SURVEY OF CANADA (DOE) (CANADA)
08FA002, False, WANNOCK RIVER AT OUTLET OF OWIKENO LAKE, Active, BC, 51.67917, -127.1792, 3900, 63, 1927, 2015, False, True, True, False, Continuous, True, False, VANCOUVER, ASSUMED DATUM, WATER SURVEY OF CANADA (DOE) (CANADA)
08FB004, False, SALLOOMT RIVER NEAR HAGENSBORG, Active, BC, 52.42456, -126.5211, 159, 50, 1965, 2014, False, True, True, False, Continuous, True, False, VANCOUVER, ASSUMED DATUM, WATER SURVEY OF CANADA (DOE) (CANADA)
08FB006, False, ATNARKO RIVER NEAR THE MOUTH, Active, BC, 52.36008, -126.0059, 2550, 49, 1965, 2014, False, True, True, False, Continuous, True, True, VANCOUVER, ASSUMED DATUM, WATER SURVEY OF CANADA (DOE) (CANADA)
08FB011, False, BELLA COOLA RIVER ABOVE HAMMER CREEK, Active, BC, 52.43922, -126.3524, , 4, 2011, 2014, False, True, True, False, Continuous, True, False, VANCOUVER, ASSUMED DATUM, WATER SURVEY OF CANADA (DOE) (CANADA)
08FC003, False, DEAN RIVER BELOW TANSWANKET CREEK, Active, BC, 52.88947, -125.7712, 3720, 55, 1959, 2017, False, True, True, False, Continuous, True, False, VANCOUVER, ASSUMED DATUM, WATER SURVEY OF CANADA (DOE) (CANADA)
08FE003, False, KEMANO RIVER ABOVE POWERHOUSE TAILRACE, Active, BC, 53.56355, -127.9524, 556, 44, 1971, 2014, False, True, True, False, Continuous, True, False, VANCOUVER, ASSUMED DATUM, WATER SURVEY OF CANADA (DOE) (CANADA)
08FF001, False, KITIMAT RIVER BELOW HIRSCH CREEK, Active, BC, 54.04872, -128.6905, 1990, 51, 1964, 2014, False, True, True, False, Continuous, True, False, VANCOUVER, ASSUMED DATUM, WATER SURVEY OF CANADA (DOE) (CANADA)
08FF002, False, HIRSCH CREEK NEAR THE MOUTH, Active, BC, 54.06405, -128.6026, 353, 51, 1966, 2016, False, True, True, False, Continuous, True, False, VANCOUVER, ASSUMED DATUM, WATER SURVEY OF CANADA (DOE) (CANADA)
08FF003, False, LITTLE WEDEENE RIVER BELOW BOWBYES CREEK, Active, BC, 54.13639, -128.69, 180, 52, 1966, 2017, False, True, True, False, Continuous, True, False, VANCOUVER, ASSUMED DATUM, WATER SURVEY OF CANADA (DOE) (CANADA)
08FF006, False, RENEGADE CREEK NEAR KITIMAT, Active, BC, 53.94891, -128.7375, 3.19, 20, 1997, 2016, False, True, True, False, Continuous, True, False, VANCOUVER, ASSUMED DATUM, WATER SURVEY OF CANADA (DOE) (CANADA)
08GA061, False, MACKAY CREEK AT MONTROYAL BOULEVARD, Active, BC, 49.35616, -123.0999, 3.63, 42, 1970, 2012, False, True, True, False, Continuous, True, True, VANCOUVER, ASSUMED DATUM, WATER SURVEY OF CANADA (DOE) (CANADA)
08GA071, False, ELAHO RIVER NEAR THE MOUTH, Active, BC, 50.11403, -123.4284, 1200, 36, 1981, 2016, False, True, True, False, Continuous, True, False, VANCOUVER, ASSUMED DATUM, WATER SURVEY OF CANADA (DOE) (CANADA)
08GA072, False, CHEAKAMUS RIVER ABOVE MILLAR CREEK, Active, BC, 50.07991, -123.0356, 297, 34, 1982, 2015, False, True, True, False, Continuous, True, False, VANCOUVER, ASSUMED DATUM, WATER SURVEY OF CANADA (DOE) (CANADA)
08GA075, False, MAMQUAM RIVER ABOVE RING CREEK, Active, BC, 49.72595, -123.1021, 284, 25, 1990, 2016, False, True, True, False, Continuous, False, False, VANCOUVER, ASSUMED DATUM, WATER SURVEY OF CANADA (DOE) (CANADA)
08GA077, False, SEYMOUR RIVER BELOW ORCHID CREEK, Active, BC, 49.5203, -123.004, 63, 26, 1992, 2017, False, True, True, False, Continuous, True, False, VANCOUVER, ASSUMED DATUM, WATER SURVEY OF CANADA (DOE) (CANADA)
08GA079, False, SEYMOUR RIVER ABOVE LAKEHEAD, Active, BC, 49.49717, -122.9691, 82.9, 21, 1997, 2017, False, True, True, False, Continuous, False, False, VANCOUVER, ASSUMED DATUM, WATER SURVEY OF CANADA (DOE) (CANADA)
08GB013, False, CLOWHOM RIVER NEAR CLOWHOM LAKE, Active, BC, 49.78719, -123.4204, 147, 25, 1993, 2017, False, True, True, False, Continuous, True, False, VANCOUVER, ASSUMED DATUM, WATER SURVEY OF CANADA (DOE) (CANADA)
08GB014, False, HORSESHOE RIVER ABOVE LOIS LAKE, Active, BC, 49.87803, -124.2784, 135, 11, 2007, 2017, False, True, True, False, Continuous, True, False, VANCOUVER, ASSUMED DATUM, WATER SURVEY OF CANADA (DOE) (CANADA)
08GC008, False, THEODOSIA RIVER ABOVE SCOTTY CREEK, Active, BC, 50.0975, -124.6161, , 14, 2003, 2016, False, True, True, False, Continuous, True, False, VANCOUVER, ASSUMED DATUM, WATER SURVEY OF CANADA (DOE) (CANADA)
08GD004, False, HOMATHKO RIVER AT THE MOUTH, Active, BC, 50.98636, -124.9186, 5680, 61, 1957, 2017, False, True, True, True, Continuous, True, False, VANCOUVER, ASSUMED DATUM, WATER SURVEY OF CANADA (DOE) (CANADA)
08GD008, False, HOMATHKO RIVER AT INLET TO TATLAYOKO LAKE, Active, BC, 51.67322, -124.4072, 486, 41, 1968, 2014, False, True, True, False, Continuous, True, False, VANCOUVER, ASSUMED DATUM, WATER SURVEY OF CANADA (DOE) (CANADA)
08GE002, False, KLINAKLINI RIVER EAST CHANNEL (MAIN) NEAR THE MOUTH, Active, BC, 51.14478, -125.5944, 5780, 41, 1977, 2017, False, True, True, False, Continuous, True, False, VANCOUVER, ASSUMED DATUM, WATER SURVEY OF CANADA (DOE) (CANADA)
08GE003, False, ICY CREEK NEAR THE MOUTH, Active, BC, 51.22761, -125.6715, 23, 19, 1998, 2016, False, True, True, False, Continuous, True, False, VANCOUVER, ASSUMED DATUM, WATER SURVEY OF CANADA (DOE) (CANADA)
08GF007, False, WAKEMAN RIVER BELOW ATWAYKELLESSE RIVER, Active, BC, 51.10278, -126.475, 698, 11, 2006, 2016, False, True, True, False, Continuous, True, False, VANCOUVER, ASSUMED DATUM, WATER SURVEY OF CANADA (DOE) (CANADA)
08HA001, False, CHEMAINUS RIVER NEAR WESTHOLME, Active, BC, 48.87836, -123.7046, 355, 69, 1914, 2016, False, True, True, False, Continuous, True, True, VANCOUVER, ASSUMED DATUM, WATER SURVEY OF CANADA (DOE) (CANADA)
08HA003, False, KOKSILAH RIVER AT COWICHAN STATION, Active, BC, 48.72783, -123.6708, 209, 67, 1914, 2016, False, True, True, False, Continuous, True, True, VANCOUVER, ASSUMED DATUM, WATER SURVEY OF CANADA (DOE) (CANADA)
08HA010, False, SAN JUAN RIVER NEAR PORT RENFREW, Active, BC, 48.57623, -124.3114, 578, 56, 1959, 2016, False, True, True, False, Continuous, True, False, VANCOUVER, ASSUMED DATUM, WATER SURVEY OF CANADA (DOE) (CANADA)
08HA016, False, BINGS CREEK NEAR THE MOUTH, Active, BC, 48.78922, -123.7255, 15.5, 56, 1961, 2016, False, True, True, False, Continuous, True, False, VANCOUVER, ASSUMED DATUM, WATER SURVEY OF CANADA (DOE) (CANADA)
08HA068, False, GARBAGE CREEK NEAR THE MOUTH, Active, BC, 48.57835, -124.1057, 2.88, 20, 1997, 2016, False, True, True, False, Continuous, True, False, VANCOUVER, ASSUMED DATUM, WATER SURVEY OF CANADA (DOE) (CANADA)
08HA069, False, RENFREW CREEK NEAR PORT RENFREW, Active, BC, 48.63675, -124.2917, 8.12, 20, 1997, 2016, False, True, True, False, Continuous, True, False, VANCOUVER, ASSUMED DATUM, WATER SURVEY OF CANADA (DOE) (CANADA)
08HA070, False, HARRIS CREEK NEAR LAKE COWICHAN, Active, BC, 48.71938, -124.2261, 28, 19, 1997, 2016, False, True, True, False, Continuous, True, False, VANCOUVER, ASSUMED DATUM, WATER SURVEY OF CANADA (DOE) (CANADA)
08HA072, False, COTTONWOOD CREEK HEADWATERS, Active, BC, 48.93352, -124.2493, 3.81, 19, 1998, 2016, False, True, True, False, Continuous, True, False, VANCOUVER, ASSUMED DATUM, WATER SURVEY OF CANADA (DOE) (CANADA)
08HB002, False, ENGLISHMAN RIVER NEAR PARKSVILLE, Active, BC, 49.31611, -124.2853, 319, 46, 1913, 2017, False, True, True, False, Continuous, True, True, VANCOUVER, ASSUMED DATUM, WATER SURVEY OF CANADA (DOE) (CANADA)
08HB014, False, SARITA RIVER NEAR BAMFIELD, Active, BC, 48.8925, -124.9694, 162, 68, 1948, 2017, False, True, True, False, Continuous, True, False, VANCOUVER, ASSUMED DATUM, WATER SURVEY OF CANADA (DOE) (CANADA)
08HB025, False, BROWNS RIVER NEAR COURTENAY, Active, BC, 49.69283, -125.0693, 87.9, 45, 1960, 2017, False, True, True, False, Continuous, True, True, VANCOUVER, ASSUMED DATUM, WATER SURVEY OF CANADA (DOE) (CANADA)
08HB032, False, MILLSTONE RIVER AT NANAIMO, Active, BC, 49.17739, -123.969, 86.2, 36, 1961, 2016, False, True, True, False, Continuous, True, False, VANCOUVER, ASSUMED DATUM, WATER SURVEY OF CANADA (DOE) (CANADA)
08HB048, False, CARNATION CREEK AT THE MOUTH, Active, BC, 48.91556, -124.9978, 10.3, 46, 1972, 2017, False, True, True, True, Continuous, True, False, VANCOUVER, ASSUMED DATUM, WATER SURVEY OF CANADA (DOE) (CANADA)
08HB074, False, CRUICKSHANK RIVER NEAR THE MOUTH, Active, BC, 49.57878, -125.214, 213, 32, 1982, 2013, False, True, True, False, Continuous, True, False, VANCOUVER, ASSUMED DATUM NO. 2, WATER SURVEY OF CANADA (DOE) (CANADA)
08HB075, False, DOVE CREEK NEAR THE MOUTH, Active, BC, 49.73658, -125.0857, 41.1, 33, 1985, 2017, False, True, True, False, Continuous, True, False, VANCOUVER, ASSUMED DATUM, WATER SURVEY OF CANADA (DOE) (CANADA)
08HB086, False, TOFINO CREEK NEAR THE MOUTH, Active, BC, 49.25083, -125.5833, 38.6, 23, 1995, 2017, False, True, True, False, Continuous, True, False, VANCOUVER, ASSUMED DATUM, WATER SURVEY OF CANADA (DOE) (CANADA)
08HC006, False, CREST LAKE NEAR HIGHWAY 28, Active, BC, 49.84107, -125.9067, , 20, 1997, 2017, False, True, True, False, Continuous, True, False, VANCOUVER, ASSUMED DATUM, WATER SURVEY OF CANADA (DOE) (CANADA)
08HD011, False, OYSTER RIVER BELOW WOODHUS CREEK, Active, BC, 49.89458, -125.2418, 302, 44, 1973, 2016, False, True, True, False, Continuous, True, False, VANCOUVER, ASSUMED DATUM, WATER SURVEY OF CANADA (DOE) (CANADA)
08HD015, False, SALMON RIVER ABOVE CAMPBELL LAKE DIVERSION, Active, BC, 50.09042, -125.6782, 268, 36, 1981, 2016, False, True, True, False, Continuous, True, False, VANCOUVER, ASSUMED DATUM, WATER SURVEY OF CANADA (DOE) (CANADA)
08HD023, False, LITTLE OYSTER RIVER AT YORKE ROAD, Active, BC, 49.91158, -125.232, 38, 23, 1994, 2016, False, True, True, False, Continuous, True, False, VANCOUVER, ASSUMED DATUM, WATER SURVEY OF CANADA (DOE) (CANADA)
08HD032, False, SALMON RIVER BELOW CAMPBELL LAKE DIVERSION, Active, BC, 50.09367, -125.6697, , 9, 2009, 2017, False, True, True, False, Continuous, True, False, VANCOUVER, ASSUMED DATUM, WATER SURVEY OF CANADA (DOE) (CANADA)
08HE006, False, ZEBALLOS RIVER NEAR ZEBALLOS, Active, BC, 50.01249, -126.8434, 178, 58, 1959, 2016, False, True, True, False, Continuous, True, False, VANCOUVER, ASSUMED DATUM, WATER SURVEY OF CANADA (DOE) (CANADA)
08HE008, False, ZEBALLOS RIVER AT MOOK PEAK, Active, BC, 50.13569, -126.8201, 14.6, 18, 1998, 2015, False, True, True, False, Continuous, True, False, VANCOUVER, ASSUMED DATUM, WATER SURVEY OF CANADA (DOE) (CANADA)
08HE009, False, KLASKISH RIVER NEAR KLASKINO INLET, Active, BC, 50.29013, -127.6979, 33.3, 20, 1998, 2017, False, True, True, False, Continuous, True, False, VANCOUVER, ASSUMED DATUM, WATER SURVEY OF CANADA (DOE) (CANADA)
08HF004, False, TSITIKA RIVER BELOW CATHERINE CREEK, Active, BC, 50.44036, -126.5785, 365, 42, 1974, 2015, False, True, True, False, Continuous, True, True, VANCOUVER, ASSUMED DATUM, WATER SURVEY OF CANADA (DOE) (CANADA)
08HF005, False, NIMPKISH RIVER ABOVE WOSS RIVER, Active, BC, 50.21483, -126.6108, 783, 28, 1990, 2017, False, True, True, False, Continuous, False, False, VANCOUVER, ASSUMED DATUM, WATER SURVEY OF CANADA (DOE) (CANADA)
08HF006, False, SAN JOSEF RIVER BELOW SHARP CREEK, Active, BC, 50.66933, -128.1684, 64.4, 26, 1990, 2017, False, True, True, False, Continuous, True, False, VANCOUVER, ASSUMED DATUM, WATER SURVEY OF CANADA (DOE) (CANADA)
08HF012, False, PUGH CREEK NEAR NAHWITTI LAKE, Active, BC, 50.7345, -127.8822, 22.3, 19, 1998, 2016, False, True, True, False, Continuous, True, False, VANCOUVER, ASSUMED DATUM, WATER SURVEY OF CANADA (DOE) (CANADA)
08HF013, False, SIMPSON CREEK NEAR KOPRINO HARBOUR, Active, BC, 50.51245, -127.842, 16.3, 19, 1998, 2016, False, True, True, False, Continuous, True, False, VANCOUVER, ASSUMED DATUM, WATER SURVEY OF CANADA (DOE) (CANADA)
08JA015, False, LAVENTIE CREEK NEAR THE MOUTH, Active, BC, 53.65208, -127.5377, 86.5, 40, 1976, 2015, False, True, True, False, Continuous, False, False, VANCOUVER, ASSUMED DATUM, WATER SURVEY OF CANADA (DOE) (CANADA)
08JA029, False, WHITESAIL MIDDLE CREEK NEAR TAHTSA REACH, Active, BC, 53.66266, -126.9904, 7.72, 17, 1997, 2013, False, True, True, False, Seasonal, False, False, VANCOUVER, ASSUMED DATUM, WATER SURVEY OF CANADA (DOE) (CANADA)
08JB002, False, STELLAKO RIVER AT GLENANNAN, Active, BC, 54.0078, -125.0089, 3600, 70, 1929, 2017, False, True, True, False, Continuous, True, True, VANCOUVER, ASSUMED DATUM, WATER SURVEY OF CANADA (DOE) (CANADA)
08JB003, False, NAUTLEY RIVER NEAR FORT FRASER, Active, BC, 54.08507, -124.6009, 6030, 65, 1950, 2016, False, True, True, False, Continuous, True, False, VANCOUVER, ASSUMED DATUM, WATER SURVEY OF CANADA (DOE) (CANADA)
08JB013, False, NORTH BEACH CREEK ABOVE ALLIN CREEK, Active, BC, 54.12694, -125.9283, 9.08, 18, 1998, 2015, False, True, True, False, Seasonal, True, False, VANCOUVER, ASSUMED DATUM, WATER SURVEY OF CANADA (DOE) (CANADA)
08JD006, False, DRIFTWOOD RIVER ABOVE KASTBERG CREEK, Active, BC, 55.97614, -126.6777, 403, 38, 1979, 2018, False, True, True, False, Continuous, True, False, VANCOUVER, ASSUMED DATUM, WATER SURVEY OF CANADA (DOE) (CANADA)
08JE001, False, STUART RIVER NEAR FORT ST. JAMES, Active, BC, 54.41686, -124.2706, 14200, 85, 1929, 2014, False, True, True, False, Continuous, True, True, VANCOUVER, ASSUMED DATUM, WATER SURVEY OF CANADA (DOE) (CANADA)
08JE004, False, TSILCOH RIVER NEAR THE MOUTH, Active, BC, 54.61081, -124.2478, 431, 43, 1975, 2017, False, True, True, False, Continuous, True, False, VANCOUVER, ASSUMED DATUM, WATER SURVEY OF CANADA (DOE) (CANADA)
08KA001, False, DORE RIVER NEAR MCBRIDE, Active, BC, 53.30925, -120.249, 409, 53, 1915, 2013, False, True, True, False, Continuous, True, False, VANCOUVER, ASSUMED DATUM, WATER SURVEY OF CANADA (DOE) (CANADA)
08KA004, False, FRASER RIVER AT HANSARD, Active, BC, 54.07867, -121.8504, 18000, 63, 1952, 2014, False, True, True, True, Continuous, True, False, VANCOUVER, ASSUMED DATUM, WATER SURVEY OF CANADA (DOE) (CANADA)
08KA005, False, FRASER RIVER AT MCBRIDE, Active, BC, 53.30172, -120.1409, 6890, 61, 1953, 2013, False, True, True, False, Continuous, True, False, VANCOUVER, ASSUMED DATUM, WATER SURVEY OF CANADA (DOE) (CANADA)
08KA007, False, FRASER RIVER AT RED PASS, Active, BC, 52.98628, -119.0067, 1710, 59, 1955, 2013, False, True, True, False, Continuous, True, False, VANCOUVER, ASSUMED DATUM, WATER SURVEY OF CANADA (DOE) (CANADA)
08KA009, False, MCKALE RIVER NEAR 940 M CONTOUR, Active, BC, 53.44406, -120.2201, 253, 45, 1971, 2015, False, True, True, False, Continuous, True, True, VANCOUVER, ASSUMED DATUM, WATER SURVEY OF CANADA (DOE) (CANADA)
08KA013, False, MORKILL RIVER BELOW HELLROARING CREEK, Active, BC, 53.68167, -120.5914, 1260, 16, 1998, 2013, False, True, True, False, Continuous, True, False, VANCOUVER, ASSUMED DATUM, WATER SURVEY OF CANADA (DOE) (CANADA)
08KB001, False, FRASER RIVER AT SHELLEY, Active, BC, 54.00367, -122.6247, 32400, 65, 1950, 2014, False, True, True, False, Continuous, True, False, VANCOUVER, ASSUMED DATUM, WATER SURVEY OF CANADA (DOE) (CANADA)
08KB003, False, MCGREGOR RIVER AT LOWER CANYON, Active, BC, 54.23117, -121.6687, 4780, 59, 1959, 2017, False, True, True, False, Continuous, True, False, VANCOUVER, ASSUMED DATUM, WATER SURVEY OF CANADA (DOE) (CANADA)
08KB006, False, MULLER CREEK NEAR THE MOUTH, Active, BC, 54.29678, -120.9774, 103, 38, 1977, 2015, False, True, True, False, Continuous, True, False, VANCOUVER, ASSUMED DATUM, WATER SURVEY OF CANADA (DOE) (CANADA)
08KC001, False, SALMON RIVER NEAR PRINCE GEORGE, Active, BC, 54.09642, -122.6799, 4230, 61, 1953, 2013, False, True, True, False, Continuous, True, False, VANCOUVER, ASSUMED DATUM, WATER SURVEY OF CANADA (DOE) (CANADA)
08KD007, False, BOWRON RIVER BELOW BOX CANYON, Active, BC, 54.01694, -122.1029, 3330, 40, 1977, 2016, False, True, True, False, Continuous, True, False, VANCOUVER, ASSUMED DATUM, WATER SURVEY OF CANADA (DOE) (CANADA)
08KE016, False, BAKER CREEK AT QUESNEL, Active, BC, 52.97389, -122.5094, 1550, 51, 1963, 2013, False, True, True, False, Continuous, True, False, VANCOUVER, ASSUMED DATUM, WATER SURVEY OF CANADA (DOE) (CANADA)
08KE024, False, LITTLE SWIFT RIVER AT THE MOUTH, Active, BC, 52.9149, -121.7675, 127, 46, 1971, 2016, False, True, True, False, Continuous, True, False, VANCOUVER, ASSUMED DATUM, WATER SURVEY OF CANADA (DOE) (CANADA)
08KG001, False, WEST ROAD RIVER NEAR CINEMA, Active, BC, 53.30642, -122.8918, 12400, 65, 1952, 2016, False, True, True, False, Continuous, True, False, VANCOUVER, ASSUMED DATUM, WATER SURVEY OF CANADA (DOE) (CANADA)
08KH001, False, QUESNEL RIVER AT LIKELY, Active, BC, 52.61583, -121.5723, 5970, 94, 1924, 2017, False, True, True, False, Continuous, True, False, VANCOUVER, ASSUMED DATUM, WATER SURVEY OF CANADA (DOE) (CANADA)
08KH006, False, QUESNEL RIVER NEAR QUESNEL, Active, BC, 52.84306, -122.2253, 11500, 78, 1939, 2016, False, True, True, False, Continuous, True, False, VANCOUVER, ASSUMED DATUM, WATER SURVEY OF CANADA (DOE) (CANADA)
08KH010, False, HORSEFLY RIVER ABOVE MCKINLEY CREEK, Active, BC, 52.29139, -121.0669, 790, 57, 1955, 2017, False, True, True, False, Continuous, True, False, VANCOUVER, ASSUMED DATUM, WATER SURVEY OF CANADA (DOE) (CANADA)
08KH019, False, MOFFAT CREEK NEAR HORSEFLY, Active, BC, 52.31556, -121.4081, 548, 52, 1964, 2015, False, True, True, False, Continuous, True, False, VANCOUVER, ASSUMED DATUM, WATER SURVEY OF CANADA (DOE) (CANADA)
08KH030, False, PENFOLD CREEK NEAR THE MOUTH, Active, BC, 52.79194, -120.7497, 184, 16, 1998, 2014, False, True, True, False, Continuous, True, False, VANCOUVER, ASSUMED DATUM, WATER SURVEY OF CANADA (DOE) (CANADA)
08KH031, False, HORSEFLY RIVER ABOVE QUESNEL LAKE, Active, BC, 52.44431, -121.4181, , 13, 2004, 2016, False, True, True, False, Continuous, False, False, VANCOUVER, ASSUMED DATUM, WATER SURVEY OF CANADA (DOE) (CANADA)
08LA001, False, CLEARWATER RIVER NEAR CLEARWATER STATION, Active, BC, 51.64947, -120.0666, 10300, 81, 1914, 2015, False, True, True, True, Continuous, True, True, VANCOUVER, ASSUMED DATUM, WATER SURVEY OF CANADA (DOE) (CANADA)
08LA027, False, BRIDGE CREEK BELOW DEKA CREEK, Active, BC, 51.58761, -120.9208, , 17, 1998, 2014, False, True, True, False, Continuous, True, False, VANCOUVER, ASSUMED DATUM, WATER SURVEY OF CANADA (DOE) (CANADA)
08LA028, False, WINDY CREEK ABOVE JIM CREEK, Active, BC, 51.62278, -120.6722, 79.4, 16, 1999, 2014, False, True, True, False, Continuous, False, False, VANCOUVER, ASSUMED DATUM, WATER SURVEY OF CANADA (DOE) (CANADA)
08LB020, False, BARRIERE RIVER AT THE MOUTH, Active, BC, 51.18802, -120.1265, 1140, 75, 1915, 2015, False, True, True, False, Continuous, True, False, VANCOUVER, ASSUMED DATUM, WATER SURVEY OF CANADA (DOE) (CANADA)
08LB024, False, FISHTRAP CREEK NEAR MCLURE, Active, BC, 51.12203, -120.2089, 135, 51, 1915, 2014, False, True, True, False, Continuous, False, False, VANCOUVER, ASSUMED DATUM, WATER SURVEY OF CANADA (DOE) (CANADA)
08LB038, False, BLUE RIVER NEAR BLUE RIVER, Active, BC, 52.11669, -119.3019, 272, 37, 1926, 2016, False, True, True, False, Continuous, True, False, VANCOUVER, ASSUMED DATUM, WATER SURVEY OF CANADA (DOE) (CANADA)
08LB047, False, NORTH THOMPSON RIVER AT BIRCH ISLAND, Active, BC, 51.60186, -119.9144, 4490, 56, 1960, 2015, False, True, True, False, Continuous, True, False, VANCOUVER, ASSUMED DATUM, WATER SURVEY OF CANADA (DOE) (CANADA)
08LB064, False, NORTH THOMPSON RIVER AT MCLURE, Active, BC, 51.04093, -120.2405, 19600, 58, 1958, 2015, False, True, True, False, Continuous, True, False, VANCOUVER, ASSUMED DATUM, WATER SURVEY OF CANADA (DOE) (CANADA)
08LB069, False, BARRIERE RIVER BELOW SPRAGUE CREEK, Active, BC, 51.24533, -119.9377, 624, 51, 1964, 2014, False, True, True, False, Continuous, False, False, VANCOUVER, ASSUMED DATUM, WATER SURVEY OF CANADA (DOE) (CANADA)
08LB076, False, HARPER CREEK NEAR THE MOUTH, Active, BC, 51.35438, -119.8816, 166, 44, 1973, 2016, False, True, True, False, Continuous, True, False, VANCOUVER, ASSUMED DATUM, WATER SURVEY OF CANADA (DOE) (CANADA)
08LC040, False, VANCE CREEK BELOW DEAFIES CREEK, Active, BC, 50.28432, -118.947, 70.9, 45, 1970, 2014, False, True, True, False, Continuous, False, False, VANCOUVER, ASSUMED DATUM, WATER SURVEY OF CANADA (DOE) (CANADA)
08LD001, False, ADAMS RIVER NEAR SQUILAX, Active, BC, 50.93759, -119.6563, 3210, 105, 1911, 2015, False, True, True, False, Continuous, True, True, VANCOUVER, ASSUMED DATUM, WATER SURVEY OF CANADA (DOE) (CANADA)
08LE024, False, EAGLE RIVER NEAR MALAKWA, Active, BC, 50.93634, -118.8017, 932, 57, 1913, 2015, False, True, True, False, Continuous, True, False, VANCOUVER, ASSUMED DATUM, WATER SURVEY OF CANADA (DOE) (CANADA)
08LE027, False, SEYMOUR RIVER NEAR SEYMOUR ARM, Active, BC, 51.26222, -118.9464, 805, 64, 1914, 2015, False, True, True, False, Continuous, True, False, VANCOUVER, ASSUMED DATUM, WATER SURVEY OF CANADA (DOE) (CANADA)
08LE031, False, SOUTH THOMPSON RIVER AT CHASE, Active, BC, 50.76311, -119.7431, 15800, 94, 1911, 2016, False, True, True, False, Continuous, True, False, VANCOUVER, ASSUMED DATUM, WATER SURVEY OF CANADA (DOE) (CANADA)
08LE077, False, CORNING CREEK NEAR SQUILAX, Active, BC, 50.91317, -119.5328, 26.2, 38, 1966, 2015, False, True, True, False, Continuous, False, False, VANCOUVER, ASSUMED DATUM, WATER SURVEY OF CANADA (DOE) (CANADA)
08LE108, False, EAST CANOE CREEK ABOVE DAM, Active, BC, 50.69665, -119.1962, 20.8, 32, 1983, 2014, False, True, True, False, Continuous, True, False, VANCOUVER, ASSUMED DATUM, WATER SURVEY OF CANADA (DOE) (CANADA)
08LF023, False, THOMPSON RIVER AT KAMLOOPS, Active, BC, 50.68752, -120.3641, 37800, 105, 1911, 2016, False, True, True, False, Continuous, True, False, VANCOUVER, ASSUMED DATUM, WATER SURVEY OF CANADA (DOE) (CANADA)
08LF051, False, THOMPSON RIVER NEAR SPENCES BRIDGE, Active, BC, 50.35463, -121.3936, 55400, 65, 1951, 2015, False, True, True, False, Continuous, True, False, VANCOUVER, ASSUMED DATUM, WATER SURVEY OF CANADA (DOE) (CANADA)
08LF094, False, JOE ROSS CREEK NEAR THE MOUTH, Active, BC, 51.15229, -120.8582, 98.9, 31, 1984, 2015, False, True, True, False, Seasonal, False, False, VANCOUVER, ASSUMED DATUM, WATER SURVEY OF CANADA (DOE) (CANADA)
08LF099, False, ARROWSTONE CREEK NEAR THE MOUTH, Active, BC, 50.83575, -121.24, 50.5, 15, 2001, 2015, False, True, True, False, Continuous, True, False, VANCOUVER, ASSUMED DATUM, WATER SURVEY OF CANADA (DOE) (CANADA)
08LF100, False, DAIRY CREEK ABOVE TSOTIN LAKE, Active, BC, 50.84079, -121.1544, 10.6, 15, 2001, 2015, False, True, True, False, Continuous, False, False, VANCOUVER, ASSUMED DATUM, WATER SURVEY OF CANADA (DOE) (CANADA)
08LG008, False, SPIUS CREEK NEAR CANFORD, Active, BC, 50.13618, -121.03, 775, 52, 1911, 2014, False, True, True, False, Continuous, False, False, VANCOUVER, ASSUMED DATUM, WATER SURVEY OF CANADA (DOE) (CANADA)
08LG016, False, PENNASK CREEK NEAR QUILCHENA, Active, BC, 49.96492, -120.1349, 87.6, 74, 1920, 2015, False, True, True, False, Continuous, True, True, VANCOUVER, ASSUMED DATUM, WATER SURVEY OF CANADA (DOE) (CANADA)
08LG048, False, COLDWATER RIVER NEAR BROOKMERE, Active, BC, 49.85422, -120.9085, 316, 51, 1965, 2015, False, True, True, False, Continuous, True, False, VANCOUVER, ASSUMED DATUM, WATER SURVEY OF CANADA (DOE) (CANADA)
08LG056, False, GUICHON CREEK ABOVE TUNKWA LAKE DIVERSION, Active, BC, 50.60783, -120.9109, 78.2, 47, 1967, 2014, False, True, True, False, Continuous, False, False, VANCOUVER, ASSUMED DATUM, WATER SURVEY OF CANADA (DOE) (CANADA)
08LG068, False, SPIUS CREEK BELOW SILVER CREEK, Active, BC, 49.95027, -121.0964, 178, 14, 2000, 2016, False, True, True, False, Continuous, False, False, VANCOUVER, ASSUMED DATUM, WATER SURVEY OF CANADA (DOE) (CANADA)
08MA001, False, CHILKO RIVER NEAR REDSTONE, Active, BC, 52.06975, -123.5395, 6880, 88, 1927, 2014, False, True, True, True, Continuous, True, False, VANCOUVER, ASSUMED DATUM, WATER SURVEY OF CANADA (DOE) (CANADA)
08MA002, False, CHILKO RIVER AT OUTLET OF CHILKO LAKE, Active, BC, 51.62486, -124.1434, 2130, 86, 1928, 2013, False, True, True, True, Continuous, True, True, VANCOUVER, ASSUMED DATUM, WATER SURVEY OF CANADA (DOE) (CANADA)
08MA003, False, TASEKO RIVER AT OUTLET OF TASEKO LAKES, Active, BC, 51.379, -123.6312, 1520, 37, 1929, 2016, False, True, True, True, Continuous, True, False, VANCOUVER, ASSUMED DATUM, WATER SURVEY OF CANADA (DOE) (CANADA)
08MA006, False, LINGFIELD CREEK NEAR THE MOUTH, Active, BC, 51.67386, -124.1453, 98.8, 41, 1974, 2014, False, True, True, False, Continuous, True, False, VANCOUVER, ASSUMED DATUM, WATER SURVEY OF CANADA (DOE) (CANADA)
08MB005, False, CHILCOTIN RIVER BELOW BIG CREEK, Active, BC, 51.84794, -122.6548, 19200, 44, 1970, 2013, False, True, True, False, Continuous, True, False, VANCOUVER, ASSUMED DATUM, WATER SURVEY OF CANADA (DOE) (CANADA)
08MB006, False, BIG CREEK ABOVE GROUNDHOG CREEK, Active, BC, 51.52369, -123.1159, 1010, 42, 1974, 2015, False, True, True, False, Continuous, True, True, VANCOUVER, ASSUMED DATUM, WATER SURVEY OF CANADA (DOE) (CANADA)
08MB007, False, BIG CREEK BELOW GRAVEYARD CREEK, Active, BC, 51.25397, -123.1045, 232, 40, 1974, 2013, False, True, True, False, Continuous, True, False, VANCOUVER, ASSUMED DATUM, WATER SURVEY OF CANADA (DOE) (CANADA)
08MC045, False, SHERIDAN CREEK ABOVE MCLEESE LAKE, Active, BC, 52.42625, -122.2946, 99, 21, 1987, 2014, False, True, True, False, Continuous, True, False, VANCOUVER, ASSUMED DATUM, WATER SURVEY OF CANADA (DOE) (CANADA)
08MD035, False, DASH CREEK ABOVE CHURN CREEK, Active, BC, 51.24492, -122.9217, , 15, 2000, 2014, False, True, True, False, Continuous, True, False, VANCOUVER, ASSUMED DATUM, WATER SURVEY OF CANADA (DOE) (CANADA)
08ME023, False, BRIDGE RIVER (SOUTH BRANCH) BELOW BRIDGE GLACIER, Active, BC, 50.85622, -123.4533, 144, 38, 1978, 2015, False, True, True, False, Continuous, True, False, VANCOUVER, ASSUMED DATUM, WATER SURVEY OF CANADA (DOE) (CANADA)
08ME025, False, YALAKOM RIVER ABOVE ORE CREEK, Active, BC, 50.91261, -122.2393, 581, 33, 1983, 2015, False, True, True, False, Continuous, False, False, VANCOUVER, ASSUMED DATUM, WATER SURVEY OF CANADA (DOE) (CANADA)
08ME027, False, HURLEY RIVER BELOW LONE GOAT CREEK, Active, BC, 50.73089, -122.942, 312, 20, 1996, 2015, False, True, True, False, Continuous, True, False, VANCOUVER, ASSUMED DATUM, WATER SURVEY OF CANADA (DOE) (CANADA)
08ME028, False, BRIDGE RIVER ABOVE DOWNTON LAKE, Active, BC, 50.82094, -123.2035, 708, 19, 1996, 2014, False, True, True, False, Continuous, True, False, VANCOUVER, ASSUMED DATUM, WATER SURVEY OF CANADA (DOE) (CANADA)
08MF062, False, COQUIHALLA RIVER BELOW NEEDLE CREEK, Active, BC, 49.54189, -121.12, 85.5, 51, 1965, 2016, False, True, True, False, Continuous, True, False, VANCOUVER, ASSUMED DATUM, WATER SURVEY OF CANADA (DOE) (CANADA)
08MF065, False, NAHATLATCH RIVER BELOW TACHEWANA CREEK, Active, BC, 49.95386, -121.8629, 712, 42, 1973, 2015, False, True, True, False, Continuous, True, False, VANCOUVER, APPROXIMATE GEODETIC SURVEY OF CANADA DATUM, WATER SURVEY OF CANADA (DOE) (CANADA)
08MF068, False, COQUIHALLA RIVER ABOVE ALEXANDER CREEK, Active, BC, 49.36846, -121.3845, 720, 29, 1987, 2016, False, True, True, False, Continuous, True, False, VANCOUVER, ASSUMED DATUM, WATER SURVEY OF CANADA (DOE) (CANADA)
08MG001, False, CHEHALIS RIVER NEAR HARRISON MILLS, Active, BC, 49.30003, -121.9378, 383, 46, 1911, 2016, False, True, True, False, Continuous, False, False, VANCOUVER, ASSUMED DATUM, WATER SURVEY OF CANADA (DOE) (CANADA)
08MG005, False, LILLOOET RIVER NEAR PEMBERTON, Active, BC, 50.33602, -122.8002, 2100, 98, 1914, 2016, False, True, True, False, Continuous, True, True, VANCOUVER, ASSUMED DATUM, WATER SURVEY OF CANADA (DOE) (CANADA)
08MG013, False, HARRISON RIVER NEAR HARRISON HOT SPRINGS, Active, BC, 49.30042, -121.8296, 7890, 65, 1951, 2015, False, True, False, True, Continuous, True, False, VANCOUVER, ASSUMED DATUM, WATER SURVEY OF CANADA (DOE) (CANADA)
08MG026, False, FITZSIMMONS CREEK BELOW BLACKCOMB CREEK, Active, BC, 50.12025, -122.9488, 89.7, 23, 1993, 2016, False, True, True, False, Continuous, True, False, VANCOUVER, ASSUMED DATUM, WATER SURVEY OF CANADA (DOE) (CANADA)
08MG027, False, LILLOOET RIVER AT TENAS NARROWS, Active, BC, 50.0916, -122.5366, , 6, 2012, 2017, False, True, True, False, Continuous, True, False, VANCOUVER, , WATER SURVEY OF CANADA (DOE) (CANADA)
08MH001, False, CHILLIWACK RIVER AT VEDDER CROSSING, Active, BC, 49.09738, -121.9675, 1230, 87, 1911, 2016, False, True, True, True, Continuous, True, False, VANCOUVER, ASSUMED DATUM, WATER SURVEY OF CANADA (DOE) (CANADA)
08MH006, False, NORTH ALOUETTE RIVER AT 232ND STREET  MAPLE RIDGE, Active, BC, 49.24265, -122.5802, 37.3, 58, 1911, 2014, False, True, True, False, Continuous, False, True, VANCOUVER, ASSUMED DATUM, WATER SURVEY OF CANADA (DOE) (CANADA)
08MH016, False, CHILLIWACK RIVER AT OUTLET OF CHILLIWACK LAKE, Active, BC, 49.08365, -121.4584, 335, 89, 1923, 2016, False, True, True, False, Continuous, False, True, VANCOUVER, ASSUMED DATUM, WATER SURVEY OF CANADA (DOE) (CANADA)
08MH029, False, SUMAS RIVER NEAR HUNTINGDON, Active, BC, 49.00249, -122.2323, 144, 60, 1935, 2012, False, True, True, False, Continuous, False, False, VANCOUVER, ASSUMED DATUM, WATER SURVEY OF CANADA (DOE) (CANADA)
08MH056, False, SLESSE CREEK NEAR VEDDER CROSSING, Active, BC, 49.07172, -121.6998, 160, 60, 1957, 2016, False, True, True, False, Continuous, True, False, VANCOUVER, ASSUMED DATUM, WATER SURVEY OF CANADA (DOE) (CANADA)
08MH076, False, KANAKA CREEK NEAR WEBSTER CORNERS, Active, BC, 49.20709, -122.5366, 47.7, 57, 1960, 2016, False, True, True, False, Continuous, True, False, VANCOUVER, ASSUMED DATUM, WATER SURVEY OF CANADA (DOE) (CANADA)
08MH103, False, CHILLIWACK RIVER ABOVE SLESSE CREEK, Active, BC, 49.10172, -121.663, 650, 54, 1963, 2016, False, True, True, False, Continuous, True, False, VANCOUVER, ASSUMED DATUM, WATER SURVEY OF CANADA (DOE) (CANADA)
08MH141, False, COQUITLAM RIVER ABOVE COQUITLAM LAKE, Active, BC, 49.48794, -122.7925, 52.5, 36, 1982, 2017, False, True, True, False, Continuous, True, False, VANCOUVER, ASSUMED DATUM, WATER SURVEY OF CANADA (DOE) (CANADA)
08MH147, False, STAVE RIVER ABOVE STAVE LAKE, Active, BC, 49.55619, -122.3231, 290, 32, 1983, 2014, False, True, True, False, Continuous, True, False, VANCOUVER, ASSUMED DATUM, WATER SURVEY OF CANADA (DOE) (CANADA)
08MH155, False, NICOMEKL RIVER AT 203 STREET  LANGLEY, Active, BC, 49.0957, -122.6601, 70, 30, 1985, 2014, False, True, True, False, Continuous, True, False, VANCOUVER, ASSUMED DATUM, WATER SURVEY OF CANADA (DOE) (CANADA)
08MH166, False, CEDAR CREEK ABOVE THE MOUTH, Active, BC, 49.38099, -122.7768, , 17, 2001, 2017, False, True, True, False, Continuous, False, False, VANCOUVER, ASSUMED DATUM NO. 1, WATER SURVEY OF CANADA (DOE) (CANADA)
08MH168, False, OR CREEK NEAR COQUITLAM, Active, BC, 49.36387, -122.7347, , 9, 2009, 2017, False, True, True, False, Continuous, True, False, VANCOUVER, ASSUMED DATUM, WATER SURVEY OF CANADA (DOE) (CANADA)
08NA002, False, COLUMBIA RIVER AT NICHOLSON, Active, BC, 51.24356, -116.9129, 6660, 115, 1903, 2018, False, True, True, True, Continuous, True, False, VANCOUVER, ASSUMED DATUM, WATER SURVEY OF CANADA (DOE) (CANADA)
08NA006, False, KICKING HORSE RIVER AT GOLDEN, Active, BC, 51.30118, -116.9721, 1850, 56, 1911, 2017, False, True, True, False, Continuous, True, False, VANCOUVER, ASSUMED DATUM, WATER SURVEY OF CANADA (DOE) (CANADA)
08NB005, False, COLUMBIA RIVER AT DONALD, Active, BC, 51.4833, -117.1804, 9700, 75, 1944, 2018, False, True, True, True, Continuous, True, True, VANCOUVER, ASSUMED DATUM, WATER SURVEY OF CANADA (DOE) (CANADA)
08NB012, False, BLAEBERRY RIVER ABOVE WILLOWBANK CREEK, Active, BC, 51.4825, -116.9694, 587, 48, 1970, 2017, False, True, True, False, Continuous, True, False, VANCOUVER, ASSUMED DATUM, WATER SURVEY OF CANADA (DOE) (CANADA)
08NB014, False, GOLD RIVER ABOVE PALMER CREEK, Active, BC, 51.67799, -117.7185, 429, 44, 1973, 2016, False, True, True, False, Continuous, True, False, VANCOUVER, ASSUMED DATUM, WATER SURVEY OF CANADA (DOE) (CANADA)
08NB016, False, SPLIT CREEK AT THE MOUTH, Active, BC, 51.5265, -116.8989, 80.5, 44, 1974, 2017, False, True, True, False, Continuous, True, False, VANCOUVER, ASSUMED DATUM, WATER SURVEY OF CANADA (DOE) (CANADA)
08NB019, False, BEAVER RIVER NEAR THE MOUTH, Active, BC, 51.50909, -117.4653, 1150, 32, 1985, 2016, False, True, True, False, Continuous, True, False, VANCOUVER, ASSUMED DATUM, WATER SURVEY OF CANADA (DOE) (CANADA)
08NC004, False, CANOE RIVER BELOW KIMMEL CREEK, Active, BC, 52.73153, -119.3849, 305, 45, 1971, 2016, False, True, True, False, Continuous, True, True, VANCOUVER, ASSUMED DATUM, WATER SURVEY OF CANADA (DOE) (CANADA)
08ND012, False, GOLDSTREAM RIVER BELOW OLD CAMP CREEK, Active, BC, 51.66878, -118.5962, 934, 57, 1954, 2015, False, True, True, False, Continuous, True, False, VANCOUVER, ASSUMED DATUM, WATER SURVEY OF CANADA (DOE) (CANADA)
08ND013, False, ILLECILLEWAET RIVER AT GREELEY, Active, BC, 51.01263, -118.0851, 1150, 53, 1963, 2015, False, True, True, False, Continuous, True, True, VANCOUVER, ASSUMED DATUM, WATER SURVEY OF CANADA (DOE) (CANADA)
08NE006, False, KUSKANAX CREEK NEAR NAKUSP, Active, BC, 50.28291, -117.7345, 330, 55, 1914, 2015, False, True, True, False, Continuous, True, True, VANCOUVER, ASSUMED DATUM, WATER SURVEY OF CANADA (DOE) (CANADA)
08NE008, False, BEATON CREEK NEAR BEATON, Active, BC, 50.73446, -117.7293, 96.7, 62, 1952, 2014, False, True, True, False, Continuous, False, False, VANCOUVER, ASSUMED DATUM, WATER SURVEY OF CANADA (DOE) (CANADA)
08NE039, False, BIG SHEEP CREEK NEAR ROSSLAND, Active, BC, 49.01465, -117.9453, 347, 71, 1929, 2017, False, True, True, False, Continuous, True, False, VANCOUVER, ASSUMED DATUM, WATER SURVEY OF CANADA (DOE) (CANADA)
08NE074, False, SALMO RIVER NEAR SALMO, Active, BC, 49.04714, -117.2943, 1240, 69, 1949, 2017, False, True, True, False, Continuous, True, False, VANCOUVER, ASSUMED DATUM, WATER SURVEY OF CANADA (DOE) (CANADA)
08NE077, False, BARNES CREEK NEAR NEEDLES, Active, BC, 49.90518, -118.1255, 204, 65, 1950, 2014, False, True, True, False, Continuous, True, True, VANCOUVER, ASSUMED DATUM, WATER SURVEY OF CANADA (DOE) (CANADA)
08NE087, False, DEER CREEK AT DEER PARK, Active, BC, 49.44847, -118.042, 81.6, 60, 1958, 2017, False, True, True, False, Continuous, False, False, VANCOUVER, ASSUMED DATUM, WATER SURVEY OF CANADA (DOE) (CANADA)
08NE110, False, INONOAKLIN CREEK ABOVE VALLEY CREEK, Active, BC, 49.89695, -118.1898, 298, 41, 1971, 2015, False, True, True, False, Continuous, True, False, VANCOUVER, ASSUMED DATUM, WATER SURVEY OF CANADA (DOE) (CANADA)
08NE114, False, HIDDEN CREEK NEAR THE MOUTH, Active, BC, 49.23454, -117.2392, 56.7, 44, 1973, 2016, False, True, True, False, Continuous, True, False, VANCOUVER, ASSUMED DATUM, WATER SURVEY OF CANADA (DOE) (CANADA)
08NF001, False, KOOTENAY RIVER AT KOOTENAY CROSSING, Active, BC, 50.88703, -116.0461, 416, 77, 1939, 2017, False, True, True, False, Continuous, True, True, VANCOUVER, ASSUMED DATUM, WATER SURVEY OF CANADA (DOE) (CANADA)
08NG065, False, KOOTENAY RIVER AT FORT STEELE, Active, BC, 49.61203, -115.6353, 11500, 54, 1963, 2016, False, True, True, False, Continuous, True, False, VANCOUVER, ASSUMED DATUM, WATER SURVEY OF CANADA (DOE) (CANADA)
08NG076, False, MATHER CREEK BELOW HOULE CREEK, Active, BC, 49.71366, -115.8967, 135, 46, 1972, 2017, False, True, True, False, Continuous, True, False, VANCOUVER, ASSUMED DATUM, WATER SURVEY OF CANADA (DOE) (CANADA)
08NG077, False, ST. MARY RIVER BELOW MORRIS CREEK, Active, BC, 49.73727, -116.435, 208, 45, 1973, 2017, False, True, True, False, Continuous, True, False, VANCOUVER, ASSUMED DATUM, WATER SURVEY OF CANADA (DOE) (CANADA)
08NH005, False, KASLO RIVER BELOW KEMP CREEK, Active, BC, 49.90762, -116.9535, 442, 60, 1914, 2016, False, True, True, False, Continuous, True, True, VANCOUVER, ASSUMED DATUM, WATER SURVEY OF CANADA (DOE) (CANADA)
08NH007, False, LARDEAU RIVER AT MARBLEHEAD, Active, BC, 50.26287, -116.9683, 1640, 71, 1917, 2017, False, True, True, False, Continuous, False, False, VANCOUVER, ASSUMED DATUM, WATER SURVEY OF CANADA (DOE) (CANADA)
08NH016, False, DUCK CREEK NEAR WYNNDEL, Active, BC, 49.20263, -116.5339, 57, 52, 1921, 2016, False, True, True, True, Continuous, True, True, VANCOUVER, ASSUMED DATUM, WATER SURVEY OF CANADA (DOE) (CANADA)
08NH084, False, ARROW CREEK NEAR ERICKSON, Active, BC, 49.15912, -116.4525, 78.3, 61, 1945, 2016, False, True, True, True, Continuous, True, True, VANCOUVER, ASSUMED DATUM, WATER SURVEY OF CANADA (DOE) (CANADA)
08NH115, False, SULLIVAN CREEK NEAR CANYON, Active, BC, 49.10427, -116.4368, 6.22, 55, 1958, 2016, False, True, True, False, Continuous, True, False, VANCOUVER, ASSUMED DATUM, WATER SURVEY OF CANADA (DOE) (CANADA)
08NH119, False, DUNCAN RIVER BELOW B.B. CREEK, Active, BC, 50.6375, -117.048, 1310, 56, 1962, 2017, False, True, True, False, Continuous, True, False, VANCOUVER, ASSUMED DATUM, WATER SURVEY OF CANADA (DOE) (CANADA)
08NH120, False, MOYIE RIVER ABOVE NEGRO CREEK, Active, BC, 49.42215, -115.9413, 239, 53, 1964, 2016, False, True, True, False, Continuous, False, False, VANCOUVER, ASSUMED DATUM, WATER SURVEY OF CANADA (DOE) (CANADA)
08NH130, False, FRY CREEK BELOW CARNEY CREEK, Active, BC, 50.082, -116.7849, 585, 44, 1973, 2016, False, True, True, False, Continuous, False, True, VANCOUVER, ASSUMED DATUM, WATER SURVEY OF CANADA (DOE) (CANADA)
08NH132, False, KEEN CREEK BELOW KYAWATS CREEK, Active, BC, 49.87255, -117.122, 92.3, 45, 1973, 2017, False, True, True, False, Continuous, True, False, VANCOUVER, ASSUMED DATUM, WATER SURVEY OF CANADA (DOE) (CANADA)
08NH138, False, HUMPHRIES CREEK NEAR TROUT LAKE, Active, BC, 50.63361, -117.5447, 8.84, 17, 1998, 2014, False, True, True, False, Continuous, True, False, VANCOUVER, ASSUMED DATUM, WATER SURVEY OF CANADA (DOE) (CANADA)
08NJ013, False, SLOCAN RIVER NEAR CRESCENT VALLEY, Active, BC, 49.46008, -117.5648, 3330, 95, 1914, 2017, False, True, True, False, Continuous, True, False, VANCOUVER, ASSUMED DATUM, WATER SURVEY OF CANADA (DOE) (CANADA)
08NJ026, False, DUHAMEL CREEK ABOVE DIVERSIONS, Active, BC, 49.59031, -117.2423, 52.9, 25, 1922, 2016, False, True, True, False, Continuous, True, False, VANCOUVER, ASSUMED DATUM, WATER SURVEY OF CANADA (DOE) (CANADA)
08NJ061, False, REDFISH CREEK NEAR HARROP, Active, BC, 49.62257, -117.0557, 27.2, 45, 1967, 2016, False, True, True, False, Continuous, True, False, VANCOUVER, ASSUMED DATUM, WATER SURVEY OF CANADA (DOE) (CANADA)
08NJ130, False, ANDERSON CREEK NEAR NELSON, Active, BC, 49.50195, -117.2613, 9.07, 57, 1945, 2016, False, True, True, True, Continuous, True, True, VANCOUVER, ASSUMED DATUM, WATER SURVEY OF CANADA (DOE) (CANADA)
08NJ160, False, LEMON CREEK ABOVE SOUTH LEMON CREEK, Active, BC, 49.69712, -117.446, 181, 44, 1973, 2016, False, True, True, False, Continuous, True, False, VANCOUVER, ASSUMED DATUM, WATER SURVEY OF CANADA (DOE) (CANADA)
08NK002, False, ELK RIVER AT FERNIE, Active, BC, 49.50347, -115.0701, 3090, 51, 1925, 2017, False, True, True, True, Continuous, True, False, VANCOUVER, ASSUMED DATUM, WATER SURVEY OF CANADA (DOE) (CANADA)
08NK016, False, ELK RIVER NEAR NATAL, Active, BC, 49.86562, -114.8687, 1840, 68, 1950, 2017, False, True, True, True, Continuous, False, False, VANCOUVER, ASSUMED DATUM, WATER SURVEY OF CANADA (DOE) (CANADA)
08NK018, False, FORDING RIVER AT THE MOUTH, Active, BC, 49.89396, -114.8667, 621, 47, 1970, 2016, False, True, True, True, Continuous, True, False, VANCOUVER, ASSUMED DATUM, WATER SURVEY OF CANADA (DOE) (CANADA)
08NK022, False, LINE CREEK AT THE MOUTH, Active, BC, 49.89149, -114.8334, 138, 46, 1971, 2016, False, True, True, True, Continuous, True, False, VANCOUVER, ASSUMED DATUM, WATER SURVEY OF CANADA (DOE) (CANADA)
08NK026, False, HOSMER CREEK ABOVE DIVERSIONS, Active, BC, 49.58417, -114.9539, 6.4, 36, 1981, 2016, False, True, True, False, Continuous, False, False, VANCOUVER, ASSUMED DATUM, WATER SURVEY OF CANADA (DOE) (CANADA)
08NL004, False, ASHNOLA RIVER NEAR KEREMEOS, Active, BC, 49.20763, -119.9935, 1050, 75, 1914, 2016, False, True, True, False, Continuous, True, False, VANCOUVER, ASSUMED DATUM, WATER SURVEY OF CANADA (DOE) (CANADA)
08NL007, False, SIMILKAMEEN RIVER AT PRINCETON, Active, BC, 49.4597, -120.5035, 1810, 81, 1914, 2015, False, True, True, False, Continuous, True, True, VANCOUVER, ASSUMED DATUM, WATER SURVEY OF CANADA (DOE) (CANADA)
08NL024, False, TULAMEEN RIVER AT PRINCETON, Active, BC, 49.45771, -120.5186, 1780, 67, 1950, 2016, False, True, True, False, Continuous, True, False, VANCOUVER, ASSUMED DATUM, WATER SURVEY OF CANADA (DOE) (CANADA)
08NL038, False, SIMILKAMEEN RIVER NEAR HEDLEY, Active, BC, 49.37697, -120.1523, 5580, 51, 1965, 2015, False, True, True, False, Continuous, True, False, VANCOUVER, ASSUMED DATUM, WATER SURVEY OF CANADA (DOE) (CANADA)
08NL050, False, HEDLEY CREEK NEAR THE MOUTH, Active, BC, 49.36419, -120.0687, 388, 42, 1973, 2014, False, True, True, False, Continuous, True, False, VANCOUVER, ASSUMED DATUM, WATER SURVEY OF CANADA (DOE) (CANADA)
08NL069, False, PASAYTEN RIVER ABOVE CALCITE CREEK, Active, BC, 49.09893, -120.5794, 566, 41, 1975, 2015, False, True, True, False, Continuous, False, False, VANCOUVER, ASSUMED DATUM, WATER SURVEY OF CANADA (DOE) (CANADA)
08NL070, False, SIMILKAMEEN RIVER ABOVE GOODFELLOW CREEK, Active, BC, 49.0941, -120.6725, 408, 42, 1974, 2015, False, True, True, False, Continuous, False, True, VANCOUVER, ASSUMED DATUM, WATER SURVEY OF CANADA (DOE) (CANADA)
08NL071, False, TULAMEEN RIVER BELOW VUICH CREEK, Active, BC, 49.46568, -120.9789, 253, 43, 1974, 2016, False, True, True, False, Continuous, True, False, VANCOUVER, ASSUMED DATUM, WATER SURVEY OF CANADA (DOE) (CANADA)
08NL076, False, EWART CREEK NEAR CATHEDRAL PARK, Active, BC, 49.1325, -120.0378, , 19, 1998, 2016, False, True, True, False, Continuous, True, False, VANCOUVER, ASSUMED DATUM, WATER SURVEY OF CANADA (DOE) (CANADA)
08NM134, False, CAMP CREEK AT MOUTH NEAR THIRSK, Active, BC, 49.71234, -120.0112, 34.6, 51, 1965, 2015, False, True, True, False, Continuous, True, False, VANCOUVER, ASSUMED DATUM, WATER SURVEY OF CANADA (DOE) (CANADA)
08NM142, False, COLDSTREAM CREEK ABOVE MUNICIPAL INTAKE, Active, BC, 50.25778, -119.0819, 60.6, 48, 1967, 2014, False, True, True, False, Continuous, True, False, VANCOUVER, ASSUMED DATUM, WATER SURVEY OF CANADA (DOE) (CANADA)
08NM146, False, CLARK CREEK NEAR WINFIELD, Active, BC, 50.04875, -119.336, 15.3, 19, 1968, 2016, False, True, True, False, Continuous, True, False, VANCOUVER, ASSUMED DATUM, WATER SURVEY OF CANADA (DOE) (CANADA)
08NM171, False, VASEUX CREEK ABOVE SOLCO CREEK, Active, BC, 49.24928, -119.3214, 117, 46, 1970, 2015, False, True, True, False, Continuous, True, False, VANCOUVER, ASSUMED DATUM, WATER SURVEY OF CANADA (DOE) (CANADA)
08NM173, False, GREATA CREEK NEAR THE MOUTH, Active, BC, 49.79458, -119.852, 40.7, 46, 1970, 2015, False, True, True, False, Continuous, False, False, VANCOUVER, ASSUMED DATUM, WATER SURVEY OF CANADA (DOE) (CANADA)
08NM174, False, WHITEMAN CREEK ABOVE BOULEAU CREEK, Active, BC, 50.21222, -119.5386, 114, 44, 1971, 2014, False, True, True, False, Continuous, True, True, VANCOUVER, ASSUMED DATUM, WATER SURVEY OF CANADA (DOE) (CANADA)
08NM240, False, TWO FORTY CREEK NEAR PENTICTON, Active, BC, 49.65089, -119.4, 4.94, 32, 1983, 2014, False, True, True, False, Continuous, True, False, VANCOUVER, ASSUMED DATUM, WATER SURVEY OF CANADA (DOE) (CANADA)
08NM241, False, TWO FORTY-ONE CREEK NEAR PENTICTON, Active, BC, 49.65004, -119.3939, 4.5, 32, 1983, 2014, False, True, True, False, Continuous, True, False, VANCOUVER, ASSUMED DATUM, WATER SURVEY OF CANADA (DOE) (CANADA)
08NM242, False, DENNIS CREEK NEAR 1780 METRE CONTOUR, Active, BC, 49.62414, -119.3812, 3.73, 31, 1985, 2015, False, True, True, False, Continuous, True, False, VANCOUVER, ASSUMED DATUM, WATER SURVEY OF CANADA (DOE) (CANADA)
08NN002, False, GRANBY RIVER AT GRAND FORKS, Active, BC, 49.04327, -118.4404, 2060, 58, 1914, 2015, False, True, True, False, Continuous, True, False, VANCOUVER, ASSUMED DATUM, WATER SURVEY OF CANADA (DOE) (CANADA)
08NN015, False, WEST KETTLE RIVER NEAR MCCULLOCH, Active, BC, 49.70292, -119.0925, 233, 61, 1949, 2015, False, True, True, False, Continuous, True, True, VANCOUVER, ASSUMED DATUM, WATER SURVEY OF CANADA (DOE) (CANADA)
08NN019, False, TRAPPING CREEK NEAR THE MOUTH, Active, BC, 49.56537, -119.052, 145, 50, 1965, 2014, False, True, True, True, Continuous, True, False, VANCOUVER, ASSUMED DATUM, WATER SURVEY OF CANADA (DOE) (CANADA)
08NN023, False, BURRELL CREEK ABOVE GLOUCESTER CREEK, Active, BC, 49.58914, -118.3118, 221, 42, 1974, 2015, False, True, True, False, Continuous, True, False, VANCOUVER, ASSUMED DATUM, WATER SURVEY OF CANADA (DOE) (CANADA)
08NN028, False, LOST HORSE CREEK NEAR CHRISTIAN VALLEY, Active, BC, 49.36582, -118.8493, 28.5, 17, 1998, 2014, False, True, True, False, Continuous, True, False, VANCOUVER, ASSUMED DATUM, WATER SURVEY OF CANADA (DOE) (CANADA)
08NP003, False, HOWELL CREEK ABOVE CABIN CREEK, Active, BC, 49.09472, -114.5358, 145, 20, 1977, 1996, False, True, False, False, Continuous, True, False, VANCOUVER, ASSUMED DATUM, WATER SURVEY OF CANADA (DOE) (CANADA)
08NP004, False, CABIN CREEK NEAR THE MOUTH, Active, BC, 49.0944, -114.5539, 92.8, 40, 1977, 2016, False, True, True, False, Continuous, False, False, VANCOUVER, ASSUMED DATUM, WATER SURVEY OF CANADA (DOE) (CANADA)
08OA002, False, YAKOUN RIVER NEAR PORT CLEMENTS, Active, BC, 53.61389, -132.2097, 480, 55, 1962, 2017, False, True, True, False, Continuous, True, True, VANCOUVER, ASSUMED DATUM, WATER SURVEY OF CANADA (DOE) (CANADA)
08OA003, False, PREMIER CREEK NEAR QUEEN CHARLOTTE, Active, BC, 53.25861, -132.075, , 45, 1971, 2016, False, True, True, False, Continuous, True, False, VANCOUVER, ASSUMED DATUM, WATER SURVEY OF CANADA (DOE) (CANADA)
08OA004, False, HONNA RIVER NEAR THE MOUTH, Active, BC, 53.25268, -132.138, 45.3, 33, 1985, 2017, False, True, True, False, Seasonal, True, False, VANCOUVER, ASSUMED DATUM, WATER SURVEY OF CANADA (DOE) (CANADA)
08OA005, False, TARUNDL CREEK NEAR QUEEN CHARLOTTE, Active, BC, 53.24399, -132.1479, 10.6, 25, 1993, 2017, False, True, True, False, Seasonal, False, False, VANCOUVER, ASSUMED DATUM, WATER SURVEY OF CANADA (DOE) (CANADA)
08OB002, False, PALLANT CREEK NEAR QUEEN CHARLOTTE, Active, BC, 53.0573, -132.0514, 76.7, 52, 1962, 2016, False, True, True, False, Continuous, True, False, VANCOUVER, ASSUMED DATUM, WATER SURVEY OF CANADA (DOE) (CANADA)
09AA006, False, ATLIN RIVER NEAR ATLIN, Active, BC, 59.59536, -133.8144, 6860, 66, 1950, 2015, False, True, True, False, Continuous, False, True, VANCOUVER, ASSUMED DATUM, WATER SURVEY OF CANADA (DOE) (CANADA)
09AA013, False, TUTSHI RIVER AT OUTLET OF TUTSHI LAKE, Active, BC, 59.94778, -134.3325, 989, 59, 1956, 2016, False, True, True, False, Continuous, True, False, VANCOUVER, ASSUMED DATUM, WATER SURVEY OF CANADA (DOE) (CANADA)
09AA018, False, MOON CREEK NEAR THE OUTLET OF MOON LAKE, Active, BC, 59.83461, -134.6857, , 5, 2012, 2016, False, True, True, False, Continuous, True, False, VANCOUVER, ASSUMED DATUM, WATER SURVEY OF CANADA (DOE) (CANADA)
09AE003, False, SWIFT RIVER NEAR SWIFT RIVER, Active, BC, 59.93083, -131.7686, 3390, 60, 1956, 2016, False, True, True, False, Continuous, True, True, VANCOUVER, ASSUMED DATUM, WATER SURVEY OF CANADA (DOE) (CANADA)
10AC005, False, COTTONWOOD RIVER ABOVE BASS CREEK, Active, BC, 59.1175, -129.8255, 882, 53, 1964, 2016, False, True, True, False, Continuous, True, False, VANCOUVER, ASSUMED DATUM, WATER SURVEY OF CANADA (DOE) (CANADA)
10BE001, False, LIARD RIVER AT LOWER CROSSING, Active, BC, 59.4125, -126.0972, 104000, 72, 1944, 2016, False, True, True, True, Continuous, True, False, VANCOUVER, ASSUMED DATUM, WATER SURVEY OF CANADA (DOE) (CANADA)
10BE004, False, TOAD RIVER ABOVE NONDA CREEK, Active, BC, 58.85497, -125.3826, 2540, 56, 1961, 2016, False, True, True, False, Continuous, True, True, VANCOUVER, ASSUMED DATUM, WATER SURVEY OF CANADA (DOE) (CANADA)
10BE007, False, TROUT RIVER AT KILOMETRE 783.7 ALASKA HIGHWAY, Active, BC, 59.33597, -125.9402, 1170, 47, 1970, 2016, False, True, True, False, Continuous, True, True, VANCOUVER, ASSUMED DATUM, WATER SURVEY OF CANADA (DOE) (CANADA)
10BE009, False, TEETER CREEK NEAR THE MOUTH, Active, BC, 59.45417, -126.2275, 209, 38, 1979, 2016, False, True, True, False, Continuous, True, False, VANCOUVER, ASSUMED DATUM, WATER SURVEY OF CANADA (DOE) (CANADA)
10BE013, False, SMITH RIVER NEAR THE MOUTH, Active, BC, 59.55333, -126.4806, 3740, 34, 1983, 2016, False, True, True, False, Continuous, True, False, VANCOUVER, ASSUMED DATUM, WATER SURVEY OF CANADA (DOE) (CANADA)
10CA001, False, FONTAS RIVER NEAR THE MOUTH, Active, BC, 58.27119, -121.4639, 7400, 25, 1988, 2016, False, True, True, False, Continuous, True, False, VANCOUVER, ASSUMED DATUM, WATER SURVEY OF CANADA (DOE) (CANADA)
10CB001, False, SIKANNI CHIEF RIVER NEAR FORT NELSON, Active, BC, 57.23822, -122.6915, 2180, 71, 1944, 2014, False, True, True, False, Continuous, True, True, VANCOUVER, ASSUMED DATUM, WATER SURVEY OF CANADA (DOE) (CANADA)
10CD001, False, MUSKWA RIVER NEAR FORT NELSON, Active, BC, 58.78811, -122.6616, 20300, 70, 1944, 2013, False, True, True, True, Continuous, True, True, VANCOUVER, ASSUMED DATUM, WATER SURVEY OF CANADA (DOE) (CANADA)
10CD003, False, RASPBERRY CREEK NEAR THE MOUTH, Active, BC, 58.89239, -123.3189, 277, 36, 1979, 2014, False, True, True, False, Continuous, True, False, VANCOUVER, ASSUMED DATUM, WATER SURVEY OF CANADA (DOE) (CANADA)
10CD004, False, BOUGIE CREEK AT KILOMETRE 368 ALASKA HIGHWAY, Active, BC, 58.03025, -122.7202, 335, 34, 1981, 2014, False, True, True, False, Continuous, True, False, VANCOUVER, ASSUMED DATUM, WATER SURVEY OF CANADA (DOE) (CANADA)
10CD005, False, ADSETT CREEK AT KILOMETRE 386.0 ALASKA HIGHWAY, Active, BC, 58.106, -122.7156, 109, 32, 1983, 2014, False, True, True, False, Continuous, True, False, VANCOUVER, ASSUMED DATUM, WATER SURVEY OF CANADA (DOE) (CANADA)
10DA001, False, PETITOT RIVER BELOW HIGHWAY NO. 77, Active, BC, 59.98889, -122.9564, 22400, 6, 1995, 2016, False, True, True, False, Continuous, True, False, YELLOWKNIFE, ASSUMED DATUM, WATER SURVEY OF CANADA (DOE) (CANADA)